{"type":"FeatureCollection",
"collectionName":"us_airports",
"srs":8307,
"geodetic":true,
"bbox":[-176.64603, 17.70189, -64.79856, 71.28545],
"attr_names":["NAME","STATE","INBOUND","OUTBOUND"],
"attr_types":["string","string","int","int"],
"features":[
{"type":"Feature","_id":"OGD","geometry": {"type":"Point", "coordinates":[-112.01218, 41.19594]},"properties":{"NAME":"Ogden-Hinckley", "STATE":"UT", "INBOUND":"2", "OUTBOUND":""}},
{"type":"Feature","_id":"CYS","geometry": {"type":"Point", "coordinates":[-104.81184, 41.15572]},"properties":{"NAME":"Cheyenne", "STATE":"WY", "INBOUND":"2", "OUTBOUND":""}},
{"type":"Feature","_id":"ATL","geometry": {"type":"Point", "coordinates":[-84.42694, 33.64044]},"properties":{"NAME":"William B Hartsfield-Atlanta Intl", "STATE":"GA", "INBOUND":"173", "OUTBOUND":"173"}},
{"type":"Feature","_id":"ORD","geometry": {"type":"Point", "coordinates":[-87.90446, 41.9796]},"properties":{"NAME":"Chicago O'Hare International", "STATE":"IL", "INBOUND":"148", "OUTBOUND":"149"}},
{"type":"Feature","_id":"DFW","geometry": {"type":"Point", "coordinates":[-97.0372, 32.89595]},"properties":{"NAME":"Dallas-Fort Worth International", "STATE":"TX", "INBOUND":"134", "OUTBOUND":"134"}},
{"type":"Feature","_id":"DEN","geometry": {"type":"Point", "coordinates":[-104.667, 39.85841]},"properties":{"NAME":"Denver Intl", "STATE":"CO", "INBOUND":"122", "OUTBOUND":"127"}},
{"type":"Feature","_id":"MSP","geometry": {"type":"Point", "coordinates":[-93.21692, 44.88055]},"properties":{"NAME":"Minneapolis-St Paul Intl", "STATE":"MN", "INBOUND":"126", "OUTBOUND":"126"}},
{"type":"Feature","_id":"DTW","geometry": {"type":"Point", "coordinates":[-83.34884, 42.21206]},"properties":{"NAME":"Detroit Metropolitan-Wayne County", "STATE":"MI", "INBOUND":"118", "OUTBOUND":"118"}},
{"type":"Feature","_id":"IAH","geometry": {"type":"Point", "coordinates":[-95.33972, 29.98047]},"properties":{"NAME":"George Bush Intercontinental", "STATE":"TX", "INBOUND":"112", "OUTBOUND":"114"}},
{"type":"Feature","_id":"SLC","geometry": {"type":"Point", "coordinates":[-111.97777, 40.78839]},"properties":{"NAME":"Salt Lake City Intl", "STATE":"UT", "INBOUND":"111", "OUTBOUND":"114"}},
{"type":"Feature","_id":"CVG","geometry": {"type":"Point", "coordinates":[-84.66217, 39.04614]},"properties":{"NAME":"Cincinnati Northern Kentucky Intl", "STATE":"KY", "INBOUND":"113", "OUTBOUND":"113"}},
{"type":"Feature","_id":"EWR","geometry": {"type":"Point", "coordinates":[-74.16866, 40.6925]},"properties":{"NAME":"Newark Intl", "STATE":"NJ", "INBOUND":"91", "OUTBOUND":"92"}},
{"type":"Feature","_id":"LAS","geometry": {"type":"Point", "coordinates":[-115.15233, 36.08036]},"properties":{"NAME":"McCarran International", "STATE":"NV", "INBOUND":"91", "OUTBOUND":"91"}},
{"type":"Feature","_id":"LAX","geometry": {"type":"Point", "coordinates":[-118.40807, 33.94254]},"properties":{"NAME":"Los Angeles International", "STATE":"CA", "INBOUND":"89", "OUTBOUND":"90"}},
{"type":"Feature","_id":"MCO","geometry": {"type":"Point", "coordinates":[-81.31603, 28.42889]},"properties":{"NAME":"Orlando International", "STATE":"FL", "INBOUND":"88", "OUTBOUND":"89"}},
{"type":"Feature","_id":"PHX","geometry": {"type":"Point", "coordinates":[-112.00806, 33.43417]},"properties":{"NAME":"Phoenix Sky Harbor International", "STATE":"AZ", "INBOUND":"88", "OUTBOUND":"88"}},
{"type":"Feature","_id":"CLT","geometry": {"type":"Point", "coordinates":[-80.94313, 35.21401]},"properties":{"NAME":"Charlotte\/Douglas International", "STATE":"NC", "INBOUND":"82", "OUTBOUND":"82"}},
{"type":"Feature","_id":"MEM","geometry": {"type":"Point", "coordinates":[-89.97667, 35.04242]},"properties":{"NAME":"Memphis International", "STATE":"TN", "INBOUND":"79", "OUTBOUND":"79"}},
{"type":"Feature","_id":"CLE","geometry": {"type":"Point", "coordinates":[-81.8494, 41.41089]},"properties":{"NAME":"Cleveland-Hopkins Intl", "STATE":"OH", "INBOUND":"75", "OUTBOUND":"75"}},
{"type":"Feature","_id":"SFO","geometry": {"type":"Point", "coordinates":[-122.37484, 37.619]},"properties":{"NAME":"San Francisco International", "STATE":"CA", "INBOUND":"70", "OUTBOUND":"74"}},
{"type":"Feature","_id":"IAD","geometry": {"type":"Point", "coordinates":[-77.45581, 38.94453]},"properties":{"NAME":"Washington Dulles International", "STATE":"VA", "INBOUND":"69", "OUTBOUND":"71"}},
{"type":"Feature","_id":"JFK","geometry": {"type":"Point", "coordinates":[-73.77893, 40.63975]},"properties":{"NAME":"John F Kennedy Intl", "STATE":"NY", "INBOUND":"70", "OUTBOUND":"68"}},
{"type":"Feature","_id":"BWI","geometry": {"type":"Point", "coordinates":[-76.6682, 39.1754]},"properties":{"NAME":"Baltimore-Washington International", "STATE":"MD", "INBOUND":"64", "OUTBOUND":"65"}},
{"type":"Feature","_id":"BOS","geometry": {"type":"Point", "coordinates":[-71.00518, 42.36435]},"properties":{"NAME":"Gen Edw L Logan Intl", "STATE":"MA", "INBOUND":"66", "OUTBOUND":"63"}},
{"type":"Feature","_id":"TPA","geometry": {"type":"Point", "coordinates":[-82.53325, 27.97547]},"properties":{"NAME":"Tampa International", "STATE":"FL", "INBOUND":"63", "OUTBOUND":"62"}},
{"type":"Feature","_id":"PHL","geometry": {"type":"Point", "coordinates":[-75.24114, 39.87195]},"properties":{"NAME":"Philadelphia Intl", "STATE":"PA", "INBOUND":"58", "OUTBOUND":"61"}},
{"type":"Feature","_id":"LGA","geometry": {"type":"Point", "coordinates":[-73.87261, 40.77724]},"properties":{"NAME":"LaGuardia", "STATE":"NY", "INBOUND":"67", "OUTBOUND":"60"}},
{"type":"Feature","_id":"FLL","geometry": {"type":"Point", "coordinates":[-80.15275, 26.07258]},"properties":{"NAME":"Fort Lauderdale-Hollywood Int'l", "STATE":"FL", "INBOUND":"58", "OUTBOUND":"58"}},
{"type":"Feature","_id":"SEA","geometry": {"type":"Point", "coordinates":[-122.30931, 47.44898]},"properties":{"NAME":"Seattle-Tacoma Intl", "STATE":"WA", "INBOUND":"56", "OUTBOUND":"56"}},
{"type":"Feature","_id":"MDW","geometry": {"type":"Point", "coordinates":[-87.75242, 41.78598]},"properties":{"NAME":"Chicago Midway", "STATE":"IL", "INBOUND":"54", "OUTBOUND":"54"}},
{"type":"Feature","_id":"SAN","geometry": {"type":"Point", "coordinates":[-117.18966, 32.73356]},"properties":{"NAME":"San Diego International-Lindbergh", "STATE":"CA", "INBOUND":"55", "OUTBOUND":"54"}},
{"type":"Feature","_id":"MKE","geometry": {"type":"Point", "coordinates":[-87.89658, 42.94722]},"properties":{"NAME":"General Mitchell International", "STATE":"WI", "INBOUND":"51", "OUTBOUND":"53"}},
{"type":"Feature","_id":"AUS","geometry": {"type":"Point", "coordinates":[-97.66987, 30.19453]},"properties":{"NAME":"Austin-Bergstrom International", "STATE":"TX", "INBOUND":"52", "OUTBOUND":"52"}},
{"type":"Feature","_id":"DCA","geometry": {"type":"Point", "coordinates":[-77.03772, 38.85208]},"properties":{"NAME":"Ronald Reagan Washington National", "STATE":"VA", "INBOUND":"56", "OUTBOUND":"52"}},
{"type":"Feature","_id":"MCI","geometry": {"type":"Point", "coordinates":[-94.71391, 39.29761]},"properties":{"NAME":"Kansas City International", "STATE":"MO", "INBOUND":"51", "OUTBOUND":"52"}},
{"type":"Feature","_id":"STL","geometry": {"type":"Point", "coordinates":[-90.35999, 38.74769]},"properties":{"NAME":"Lambert-St Louis International", "STATE":"MO", "INBOUND":"53", "OUTBOUND":"50"}},
{"type":"Feature","_id":"BNA","geometry": {"type":"Point", "coordinates":[-86.67818, 36.12448]},"properties":{"NAME":"Nashville International", "STATE":"TN", "INBOUND":"48", "OUTBOUND":"49"}},
{"type":"Feature","_id":"MIA","geometry": {"type":"Point", "coordinates":[-80.29056, 25.79325]},"properties":{"NAME":"Miami International", "STATE":"FL", "INBOUND":"49", "OUTBOUND":"48"}},
{"type":"Feature","_id":"PDX","geometry": {"type":"Point", "coordinates":[-122.5975, 45.58872]},"properties":{"NAME":"Portland Intl", "STATE":"OR", "INBOUND":"44", "OUTBOUND":"45"}},
{"type":"Feature","_id":"SAT","geometry": {"type":"Point", "coordinates":[-98.46978, 29.53369]},"properties":{"NAME":"San Antonio International", "STATE":"TX", "INBOUND":"41", "OUTBOUND":"43"}},
{"type":"Feature","_id":"RDU","geometry": {"type":"Point", "coordinates":[-78.78747, 35.87764]},"properties":{"NAME":"Raleigh-Durham International", "STATE":"NC", "INBOUND":"45", "OUTBOUND":"43"}},
{"type":"Feature","_id":"MSY","geometry": {"type":"Point", "coordinates":[-90.25803, 29.99339]},"properties":{"NAME":"New Orleans International", "STATE":"LA", "INBOUND":"39", "OUTBOUND":"41"}},
{"type":"Feature","_id":"IND","geometry": {"type":"Point", "coordinates":[-86.29438, 39.71733]},"properties":{"NAME":"Indianapolis International", "STATE":"IN", "INBOUND":"39", "OUTBOUND":"40"}},
{"type":"Feature","_id":"CMH","geometry": {"type":"Point", "coordinates":[-82.89188, 39.99799]},"properties":{"NAME":"Port Columbus Intl", "STATE":"OH", "INBOUND":"34", "OUTBOUND":"38"}},
{"type":"Feature","_id":"ABQ","geometry": {"type":"Point", "coordinates":[-106.60919, 35.04022]},"properties":{"NAME":"Albuquerque International", "STATE":"NM", "INBOUND":"41", "OUTBOUND":"38"}},
{"type":"Feature","_id":"SMF","geometry": {"type":"Point", "coordinates":[-121.59077, 38.69542]},"properties":{"NAME":"Sacramento International", "STATE":"CA", "INBOUND":"37", "OUTBOUND":"37"}},
{"type":"Feature","_id":"RSW","geometry": {"type":"Point", "coordinates":[-81.75517, 26.53617]},"properties":{"NAME":"Southwest Florida International", "STATE":"FL", "INBOUND":"34", "OUTBOUND":"35"}},
{"type":"Feature","_id":"JAX","geometry": {"type":"Point", "coordinates":[-81.68786, 30.49406]},"properties":{"NAME":"Jacksonville International", "STATE":"FL", "INBOUND":"41", "OUTBOUND":"35"}},
{"type":"Feature","_id":"PIT","geometry": {"type":"Point", "coordinates":[-80.23287, 40.49147]},"properties":{"NAME":"Pittsburgh International", "STATE":"PA", "INBOUND":"37", "OUTBOUND":"34"}},
{"type":"Feature","_id":"OAK","geometry": {"type":"Point", "coordinates":[-122.22072, 37.72129]},"properties":{"NAME":"Metropolitan Oakland International", "STATE":"CA", "INBOUND":"33", "OUTBOUND":"34"}},
{"type":"Feature","_id":"BDL","geometry": {"type":"Point", "coordinates":[-72.68323, 41.93887]},"properties":{"NAME":"Bradley International", "STATE":"CT", "INBOUND":"35", "OUTBOUND":"33"}},
{"type":"Feature","_id":"HOU","geometry": {"type":"Point", "coordinates":[-95.27889, 29.64542]},"properties":{"NAME":"William P Hobby", "STATE":"TX", "INBOUND":"33", "OUTBOUND":"33"}},
{"type":"Feature","_id":"ONT","geometry": {"type":"Point", "coordinates":[-117.60119, 34.056]},"properties":{"NAME":"Ontario International", "STATE":"CA", "INBOUND":"35", "OUTBOUND":"33"}},
{"type":"Feature","_id":"BHM","geometry": {"type":"Point", "coordinates":[-86.75355, 33.56294]},"properties":{"NAME":"Birmingham International", "STATE":"AL", "INBOUND":"33", "OUTBOUND":"32"}},
{"type":"Feature","_id":"TUL","geometry": {"type":"Point", "coordinates":[-95.88824, 36.19837]},"properties":{"NAME":"Tulsa International", "STATE":"OK", "INBOUND":"28", "OUTBOUND":"31"}},
{"type":"Feature","_id":"OKC","geometry": {"type":"Point", "coordinates":[-97.60073, 35.39309]},"properties":{"NAME":"Will Rogers World", "STATE":"OK", "INBOUND":"31", "OUTBOUND":"30"}},
{"type":"Feature","_id":"SJC","geometry": {"type":"Point", "coordinates":[-121.92901, 37.36186]},"properties":{"NAME":"San Jose International", "STATE":"CA", "INBOUND":"28", "OUTBOUND":"30"}},
{"type":"Feature","_id":"TUS","geometry": {"type":"Point", "coordinates":[-110.94103, 32.11608]},"properties":{"NAME":"Tucson International", "STATE":"AZ", "INBOUND":"32", "OUTBOUND":"30"}},
{"type":"Feature","_id":"ANC","geometry": {"type":"Point", "coordinates":[-149.99619, 61.17432]},"properties":{"NAME":"Ted Stevens Anchorage International", "STATE":"AK", "INBOUND":"29", "OUTBOUND":"28"}},
{"type":"Feature","_id":"OMA","geometry": {"type":"Point", "coordinates":[-95.89417, 41.30252]},"properties":{"NAME":"Eppley Airfield", "STATE":"NE", "INBOUND":"24", "OUTBOUND":"28"}},
{"type":"Feature","_id":"SDF","geometry": {"type":"Point", "coordinates":[-85.736, 38.17439]},"properties":{"NAME":"Louisville International-Standiford", "STATE":"KY", "INBOUND":"29", "OUTBOUND":"28"}},
{"type":"Feature","_id":"ORF","geometry": {"type":"Point", "coordinates":[-76.20122, 36.89461]},"properties":{"NAME":"Norfolk International", "STATE":"VA", "INBOUND":"27", "OUTBOUND":"26"}},
{"type":"Feature","_id":"SNA","geometry": {"type":"Point", "coordinates":[-117.86822, 33.67566]},"properties":{"NAME":"John Wayne \/Orange Co", "STATE":"CA", "INBOUND":"25", "OUTBOUND":"26"}},
{"type":"Feature","_id":"PBI","geometry": {"type":"Point", "coordinates":[-80.09559, 26.68316]},"properties":{"NAME":"Palm Beach International", "STATE":"FL", "INBOUND":"28", "OUTBOUND":"25"}},
{"type":"Feature","_id":"HNL","geometry": {"type":"Point", "coordinates":[-157.92241, 21.31869]},"properties":{"NAME":"Honolulu International", "STATE":"HI", "INBOUND":"24", "OUTBOUND":"24"}},
{"type":"Feature","_id":"RNO","geometry": {"type":"Point", "coordinates":[-119.76806, 39.49858]},"properties":{"NAME":"Reno\/Tahoe International", "STATE":"NV", "INBOUND":"24", "OUTBOUND":"24"}},
{"type":"Feature","_id":"SJU","geometry": {"type":"Point", "coordinates":[-66.00183, 18.43942]},"properties":{"NAME":"Luis Munoz Marin International", "STATE":"PR", "INBOUND":"23", "OUTBOUND":"23"}},
{"type":"Feature","_id":"XNA","geometry": {"type":"Point", "coordinates":[-94.30681, 36.28187]},"properties":{"NAME":"Northwest Arkansas Regional", "STATE":"AR", "INBOUND":"20", "OUTBOUND":"23"}},
{"type":"Feature","_id":"BUF","geometry": {"type":"Point", "coordinates":[-78.73217, 42.94052]},"properties":{"NAME":"Buffalo Niagara Intl", "STATE":"NY", "INBOUND":"22", "OUTBOUND":"22"}},
{"type":"Feature","_id":"PVD","geometry": {"type":"Point", "coordinates":[-71.42822, 41.724]},"properties":{"NAME":"Theodore F Green State", "STATE":"RI", "INBOUND":"20", "OUTBOUND":"22"}},
{"type":"Feature","_id":"COS","geometry": {"type":"Point", "coordinates":[-104.70025, 38.80581]},"properties":{"NAME":"City of Colorado Springs Muni", "STATE":"CO", "INBOUND":"23", "OUTBOUND":"22"}},
{"type":"Feature","_id":"RIC","geometry": {"type":"Point", "coordinates":[-77.31967, 37.50517]},"properties":{"NAME":"Richmond International", "STATE":"VA", "INBOUND":"18", "OUTBOUND":"22"}},
{"type":"Feature","_id":"DSM","geometry": {"type":"Point", "coordinates":[-93.66068, 41.53493]},"properties":{"NAME":"Des Moines International", "STATE":"IA", "INBOUND":"22", "OUTBOUND":"21"}},
{"type":"Feature","_id":"LGB","geometry": {"type":"Point", "coordinates":[-118.15161, 33.81772]},"properties":{"NAME":"Long Beach (Daugherty)", "STATE":"CA", "INBOUND":"19", "OUTBOUND":"21"}},
{"type":"Feature","_id":"LIT","geometry": {"type":"Point", "coordinates":[-92.22425, 34.7294]},"properties":{"NAME":"Adams", "STATE":"AR", "INBOUND":"20", "OUTBOUND":"21"}},
{"type":"Feature","_id":"GEG","geometry": {"type":"Point", "coordinates":[-117.53384, 47.61986]},"properties":{"NAME":"Spokane Intl", "STATE":"WA", "INBOUND":"17", "OUTBOUND":"19"}},
{"type":"Feature","_id":"ALB","geometry": {"type":"Point", "coordinates":[-73.80298, 42.74812]},"properties":{"NAME":"Albany Cty", "STATE":"NY", "INBOUND":"17", "OUTBOUND":"19"}},
{"type":"Feature","_id":"GSO","geometry": {"type":"Point", "coordinates":[-79.9373, 36.09775]},"properties":{"NAME":"Piedmont Triad International", "STATE":"NC", "INBOUND":"16", "OUTBOUND":"19"}},
{"type":"Feature","_id":"BOI","geometry": {"type":"Point", "coordinates":[-116.22278, 43.56444]},"properties":{"NAME":"Boise Air Terminal", "STATE":"ID", "INBOUND":"19", "OUTBOUND":"19"}},
{"type":"Feature","_id":"ICT","geometry": {"type":"Point", "coordinates":[-97.43305, 37.64996]},"properties":{"NAME":"Wichita Mid-Continent", "STATE":"KS", "INBOUND":"13", "OUTBOUND":"19"}},
{"type":"Feature","_id":"ELP","geometry": {"type":"Point", "coordinates":[-106.37781, 31.80667]},"properties":{"NAME":"El Paso International", "STATE":"TX", "INBOUND":"18", "OUTBOUND":"18"}},
{"type":"Feature","_id":"MHT","geometry": {"type":"Point", "coordinates":[-71.43706, 42.93452]},"properties":{"NAME":"Manchester", "STATE":"NH", "INBOUND":"17", "OUTBOUND":"18"}},
{"type":"Feature","_id":"DAL","geometry": {"type":"Point", "coordinates":[-96.85177, 32.84711]},"properties":{"NAME":"Dallas Love", "STATE":"TX", "INBOUND":"18", "OUTBOUND":"18"}},
{"type":"Feature","_id":"BUR","geometry": {"type":"Point", "coordinates":[-118.3585, 34.20062]},"properties":{"NAME":"Burbank-Glendale-Pasadena", "STATE":"CA", "INBOUND":"14", "OUTBOUND":"17"}},
{"type":"Feature","_id":"MSN","geometry": {"type":"Point", "coordinates":[-89.33751, 43.13986]},"properties":{"NAME":"Dane County Regional", "STATE":"WI", "INBOUND":"19", "OUTBOUND":"17"}},
{"type":"Feature","_id":"ROC","geometry": {"type":"Point", "coordinates":[-77.67238, 43.11887]},"properties":{"NAME":"Greater Rochester Int'l", "STATE":"NY", "INBOUND":"17", "OUTBOUND":"17"}},
{"type":"Feature","_id":"OGG","geometry": {"type":"Point", "coordinates":[-156.43046, 20.89865]},"properties":{"NAME":"Kahului", "STATE":"HI", "INBOUND":"18", "OUTBOUND":"17"}},
{"type":"Feature","_id":"CHS","geometry": {"type":"Point", "coordinates":[-80.04051, 32.89865]},"properties":{"NAME":"Charleston AFB\/International", "STATE":"SC", "INBOUND":"17", "OUTBOUND":"16"}},
{"type":"Feature","_id":"SRQ","geometry": {"type":"Point", "coordinates":[-82.55411, 27.39533]},"properties":{"NAME":"Sarasota Bradenton International", "STATE":"FL", "INBOUND":"15", "OUTBOUND":"16"}},
{"type":"Feature","_id":"GRR","geometry": {"type":"Point", "coordinates":[-85.52277, 42.88082]},"properties":{"NAME":"Kent County International", "STATE":"MI", "INBOUND":"20", "OUTBOUND":"16"}},
{"type":"Feature","_id":"TYS","geometry": {"type":"Point", "coordinates":[-83.99286, 35.81249]},"properties":{"NAME":"McGhee-Tyson", "STATE":"TN", "INBOUND":"15", "OUTBOUND":"16"}},
{"type":"Feature","_id":"SAV","geometry": {"type":"Point", "coordinates":[-81.20214, 32.12758]},"properties":{"NAME":"Savannah International", "STATE":"GA", "INBOUND":"17", "OUTBOUND":"16"}},
{"type":"Feature","_id":"PSP","geometry": {"type":"Point", "coordinates":[-116.50625, 33.82922]},"properties":{"NAME":"Palm Springs International", "STATE":"CA", "INBOUND":"17", "OUTBOUND":"16"}},
{"type":"Feature","_id":"DAY","geometry": {"type":"Point", "coordinates":[-84.21938, 39.90238]},"properties":{"NAME":"James M Cox Dayton Intl", "STATE":"OH", "INBOUND":"17", "OUTBOUND":"16"}},
{"type":"Feature","_id":"SYR","geometry": {"type":"Point", "coordinates":[-76.10631, 43.11119]},"properties":{"NAME":"Syracuse-Hancock Intl", "STATE":"NY", "INBOUND":"15", "OUTBOUND":"15"}},
{"type":"Feature","_id":"HSV","geometry": {"type":"Point", "coordinates":[-86.77311, 34.64045]},"properties":{"NAME":"Huntsville International", "STATE":"AL", "INBOUND":"14", "OUTBOUND":"15"}},
{"type":"Feature","_id":"LEX","geometry": {"type":"Point", "coordinates":[-84.60539, 38.03697]},"properties":{"NAME":"Blue Grass", "STATE":"KY", "INBOUND":"14", "OUTBOUND":"14"}},
{"type":"Feature","_id":"FAT","geometry": {"type":"Point", "coordinates":[-119.71814, 36.77619]},"properties":{"NAME":"Fresno Yosemite International", "STATE":"CA", "INBOUND":"17", "OUTBOUND":"14"}},
{"type":"Feature","_id":"MDT","geometry": {"type":"Point", "coordinates":[-76.7634, 40.1935]},"properties":{"NAME":"Harrisburg Intl", "STATE":"PA", "INBOUND":"10", "OUTBOUND":"14"}},
{"type":"Feature","_id":"EGE","geometry": {"type":"Point", "coordinates":[-106.9177, 39.64257]},"properties":{"NAME":"Eagle County Regional", "STATE":"CO", "INBOUND":"13", "OUTBOUND":"13"}},
{"type":"Feature","_id":"JAN","geometry": {"type":"Point", "coordinates":[-90.07589, 32.31117]},"properties":{"NAME":"Jackson International", "STATE":"MS", "INBOUND":"13", "OUTBOUND":"13"}},
{"type":"Feature","_id":"PWM","geometry": {"type":"Point", "coordinates":[-70.30875, 43.64617]},"properties":{"NAME":"Portland International Jetport", "STATE":"ME", "INBOUND":"12", "OUTBOUND":"13"}},
{"type":"Feature","_id":"HPN","geometry": {"type":"Point", "coordinates":[-73.70757, 41.06696]},"properties":{"NAME":"Westchester Cty", "STATE":"NY", "INBOUND":"12", "OUTBOUND":"13"}},
{"type":"Feature","_id":"GSP","geometry": {"type":"Point", "coordinates":[-82.21886, 34.89567]},"properties":{"NAME":"Greenville-Spartanburg", "STATE":"SC", "INBOUND":"12", "OUTBOUND":"13"}},
{"type":"Feature","_id":"BTV","geometry": {"type":"Point", "coordinates":[-73.15031, 44.473]},"properties":{"NAME":"Burlington International", "STATE":"VT", "INBOUND":"13", "OUTBOUND":"12"}},
{"type":"Feature","_id":"FNT","geometry": {"type":"Point", "coordinates":[-83.74346, 42.9655]},"properties":{"NAME":"Bishop", "STATE":"MI", "INBOUND":"12", "OUTBOUND":"12"}},
{"type":"Feature","_id":"KOA","geometry": {"type":"Point", "coordinates":[-156.04563, 19.73877]},"properties":{"NAME":"Kona International At Keahole", "STATE":"HI", "INBOUND":"12", "OUTBOUND":"12"}},
{"type":"Feature","_id":"MFR","geometry": {"type":"Point", "coordinates":[-122.8735, 42.37423]},"properties":{"NAME":"Rogue Valley International", "STATE":"OR", "INBOUND":"10", "OUTBOUND":"12"}},
{"type":"Feature","_id":"CAK","geometry": {"type":"Point", "coordinates":[-81.44247, 40.91631]},"properties":{"NAME":"Akron-Canton Regional", "STATE":"OH", "INBOUND":"14", "OUTBOUND":"12"}},
{"type":"Feature","_id":"GRB","geometry": {"type":"Point", "coordinates":[-88.12959, 44.48507]},"properties":{"NAME":"Austin Straubel International", "STATE":"WI", "INBOUND":"15", "OUTBOUND":"11"}},
{"type":"Feature","_id":"SGF","geometry": {"type":"Point", "coordinates":[-93.38686, 37.24433]},"properties":{"NAME":"Springfield-Branson Regional", "STATE":"MO", "INBOUND":"12", "OUTBOUND":"11"}},
{"type":"Feature","_id":"MYR","geometry": {"type":"Point", "coordinates":[-78.92833, 33.67975]},"properties":{"NAME":"Myrtle Beach International", "STATE":"SC", "INBOUND":"9", "OUTBOUND":"11"}},
{"type":"Feature","_id":"EUG","geometry": {"type":"Point", "coordinates":[-123.21869, 44.12326]},"properties":{"NAME":"Mahlon Sweet", "STATE":"OR", "INBOUND":"7", "OUTBOUND":"10"}},
{"type":"Feature","_id":"SBA","geometry": {"type":"Point", "coordinates":[-119.84037, 34.42621]},"properties":{"NAME":"Santa Barbara Municipal", "STATE":"CA", "INBOUND":"12", "OUTBOUND":"10"}},
{"type":"Feature","_id":"ASE","geometry": {"type":"Point", "coordinates":[-106.86885, 39.22316]},"properties":{"NAME":"Aspen-Pitkin Co\/Sardy", "STATE":"CO", "INBOUND":"9", "OUTBOUND":"10"}},
{"type":"Feature","_id":"HDN","geometry": {"type":"Point", "coordinates":[-107.21766, 40.48118]},"properties":{"NAME":"Yampa Valley", "STATE":"CO", "INBOUND":"11", "OUTBOUND":"10"}},
{"type":"Feature","_id":"LIH","geometry": {"type":"Point", "coordinates":[-159.33896, 21.97598]},"properties":{"NAME":"Lihue", "STATE":"HI", "INBOUND":"10", "OUTBOUND":"10"}},
{"type":"Feature","_id":"CID","geometry": {"type":"Point", "coordinates":[-91.71087, 41.88459]},"properties":{"NAME":"Eastern Iowa", "STATE":"IA", "INBOUND":"10", "OUTBOUND":"10"}},
{"type":"Feature","_id":"CAE","geometry": {"type":"Point", "coordinates":[-81.11954, 33.93884]},"properties":{"NAME":"Columbia Metropolitan", "STATE":"SC", "INBOUND":"10", "OUTBOUND":"10"}},
{"type":"Feature","_id":"BZN","geometry": {"type":"Point", "coordinates":[-111.15301, 45.7769]},"properties":{"NAME":"Gallatin", "STATE":"MT", "INBOUND":"9", "OUTBOUND":"10"}},
{"type":"Feature","_id":"ABE","geometry": {"type":"Point", "coordinates":[-75.4404, 40.65236]},"properties":{"NAME":"Lehigh Valley International", "STATE":"PA", "INBOUND":"8", "OUTBOUND":"10"}},
{"type":"Feature","_id":"FSD","geometry": {"type":"Point", "coordinates":[-96.7417, 43.58135]},"properties":{"NAME":"Joe Foss", "STATE":"SD", "INBOUND":"8", "OUTBOUND":"10"}},
{"type":"Feature","_id":"ATW","geometry": {"type":"Point", "coordinates":[-88.51948, 44.25741]},"properties":{"NAME":"Outagamie County Regional", "STATE":"WI", "INBOUND":"11", "OUTBOUND":"9"}},
{"type":"Feature","_id":"DAB","geometry": {"type":"Point", "coordinates":[-81.05806, 29.17992]},"properties":{"NAME":"Daytona Beach International", "STATE":"FL", "INBOUND":"7", "OUTBOUND":"9"}},
{"type":"Feature","_id":"MRY","geometry": {"type":"Point", "coordinates":[-121.84295, 36.58698]},"properties":{"NAME":"Monterey Peninsula", "STATE":"CA", "INBOUND":"14", "OUTBOUND":"9"}},
{"type":"Feature","_id":"STT","geometry": {"type":"Point", "coordinates":[-64.97336, 18.33731]},"properties":{"NAME":"Cyril E. King", "STATE":"VI", "INBOUND":"12", "OUTBOUND":"9"}},
{"type":"Feature","_id":"PNS","geometry": {"type":"Point", "coordinates":[-87.18744, 30.47331]},"properties":{"NAME":"Pensacola Regional", "STATE":"FL", "INBOUND":"9", "OUTBOUND":"9"}},
{"type":"Feature","_id":"JAC","geometry": {"type":"Point", "coordinates":[-110.73774, 43.60732]},"properties":{"NAME":"Jackson Hole", "STATE":"WY", "INBOUND":"8", "OUTBOUND":"9"}},
{"type":"Feature","_id":"ISP","geometry": {"type":"Point", "coordinates":[-73.10021, 40.79524]},"properties":{"NAME":"Long Island - MacArthur", "STATE":"NY", "INBOUND":"9", "OUTBOUND":"9"}},
{"type":"Feature","_id":"MLI","geometry": {"type":"Point", "coordinates":[-90.50754, 41.44853]},"properties":{"NAME":"Quad City", "STATE":"IL", "INBOUND":"10", "OUTBOUND":"9"}},
{"type":"Feature","_id":"BTR","geometry": {"type":"Point", "coordinates":[-91.14963, 30.53316]},"properties":{"NAME":"Baton Rouge Metropolitan, Ryan", "STATE":"LA", "INBOUND":"9", "OUTBOUND":"9"}},
{"type":"Feature","_id":"BFL","geometry": {"type":"Point", "coordinates":[-119.05677, 35.4336]},"properties":{"NAME":"Meadows", "STATE":"CA", "INBOUND":"11", "OUTBOUND":"9"}},
{"type":"Feature","_id":"GJT","geometry": {"type":"Point", "coordinates":[-108.52673, 39.12241]},"properties":{"NAME":"Walker", "STATE":"CO", "INBOUND":"14", "OUTBOUND":"8"}},
{"type":"Feature","_id":"SWF","geometry": {"type":"Point", "coordinates":[-74.10484, 41.50409]},"properties":{"NAME":"Stewart", "STATE":"NY", "INBOUND":"6", "OUTBOUND":"8"}},
{"type":"Feature","_id":"ROA","geometry": {"type":"Point", "coordinates":[-79.97543, 37.32547]},"properties":{"NAME":"Roanoke Regional\/ Woodrum", "STATE":"VA", "INBOUND":"5", "OUTBOUND":"8"}},
{"type":"Feature","_id":"TLH","geometry": {"type":"Point", "coordinates":[-84.35033, 30.39653]},"properties":{"NAME":"Tallahassee Regional", "STATE":"FL", "INBOUND":"8", "OUTBOUND":"8"}},
{"type":"Feature","_id":"SBP","geometry": {"type":"Point", "coordinates":[-120.64239, 35.23706]},"properties":{"NAME":"San Luis Obispo Co-McChesney", "STATE":"CA", "INBOUND":"6", "OUTBOUND":"8"}},
{"type":"Feature","_id":"MTJ","geometry": {"type":"Point", "coordinates":[-107.89383, 38.50887]},"properties":{"NAME":"Montrose Regional", "STATE":"CO", "INBOUND":"8", "OUTBOUND":"8"}},
{"type":"Feature","_id":"LNK","geometry": {"type":"Point", "coordinates":[-96.75925, 40.85097]},"properties":{"NAME":"Lincoln Municipal", "STATE":"NE", "INBOUND":"8", "OUTBOUND":"8"}},
{"type":"Feature","_id":"BGR","geometry": {"type":"Point", "coordinates":[-68.82814, 44.80744]},"properties":{"NAME":"Bangor International", "STATE":"ME", "INBOUND":"7", "OUTBOUND":"8"}},
{"type":"Feature","_id":"FAR","geometry": {"type":"Point", "coordinates":[-96.81499, 46.91935]},"properties":{"NAME":"Hector International", "STATE":"ND", "INBOUND":"7", "OUTBOUND":"7"}},
{"type":"Feature","_id":"AMA","geometry": {"type":"Point", "coordinates":[-101.70593, 35.21937]},"properties":{"NAME":"Amarillo International", "STATE":"TX", "INBOUND":"7", "OUTBOUND":"7"}},
{"type":"Feature","_id":"TVC","geometry": {"type":"Point", "coordinates":[-85.58224, 44.74144]},"properties":{"NAME":"Cherry Capital", "STATE":"MI", "INBOUND":"7", "OUTBOUND":"7"}},
{"type":"Feature","_id":"JNU","geometry": {"type":"Point", "coordinates":[-134.57628, 58.35496]},"properties":{"NAME":"Juneau International", "STATE":"AK", "INBOUND":"7", "OUTBOUND":"7"}},
{"type":"Feature","_id":"EVV","geometry": {"type":"Point", "coordinates":[-87.53063, 38.03799]},"properties":{"NAME":"Evansville Regional", "STATE":"IN", "INBOUND":"6", "OUTBOUND":"7"}},
{"type":"Feature","_id":"MAF","geometry": {"type":"Point", "coordinates":[-102.20191, 31.94253]},"properties":{"NAME":"Midland International", "STATE":"TX", "INBOUND":"7", "OUTBOUND":"7"}},
{"type":"Feature","_id":"LBB","geometry": {"type":"Point", "coordinates":[-101.82278, 33.66364]},"properties":{"NAME":"Lubbock International", "STATE":"TX", "INBOUND":"8", "OUTBOUND":"7"}},
{"type":"Feature","_id":"CHA","geometry": {"type":"Point", "coordinates":[-85.20379, 35.03527]},"properties":{"NAME":"Lovell", "STATE":"TN", "INBOUND":"7", "OUTBOUND":"7"}},
{"type":"Feature","_id":"PIA","geometry": {"type":"Point", "coordinates":[-89.69331, 40.66424]},"properties":{"NAME":"Greater Peoria Regional", "STATE":"IL", "INBOUND":"10", "OUTBOUND":"7"}},
{"type":"Feature","_id":"VPS","geometry": {"type":"Point", "coordinates":[-86.5254, 30.48325]},"properties":{"NAME":"Eglin Air Force Base", "STATE":"FL", "INBOUND":"7", "OUTBOUND":"7"}},
{"type":"Feature","_id":"CRW","geometry": {"type":"Point", "coordinates":[-81.59319, 38.37315]},"properties":{"NAME":"Yeager", "STATE":"WV", "INBOUND":"7", "OUTBOUND":"7"}},
{"type":"Feature","_id":"AVP","geometry": {"type":"Point", "coordinates":[-75.72427, 41.33815]},"properties":{"NAME":"Wilkes-Barre\/Scranton Intl", "STATE":"PA", "INBOUND":"7", "OUTBOUND":"7"}},
{"type":"Feature","_id":"AVL","geometry": {"type":"Point", "coordinates":[-82.54181, 35.43619]},"properties":{"NAME":"Asheville Regional", "STATE":"NC", "INBOUND":"7", "OUTBOUND":"7"}},
{"type":"Feature","_id":"GPT","geometry": {"type":"Point", "coordinates":[-89.07009, 30.40728]},"properties":{"NAME":"Gulfport-Biloxi Regional", "STATE":"MS", "INBOUND":"7", "OUTBOUND":"7"}},
{"type":"Feature","_id":"FCA","geometry": {"type":"Point", "coordinates":[-114.25507, 48.3114]},"properties":{"NAME":"Glacier Park Intl", "STATE":"MT", "INBOUND":"6", "OUTBOUND":"7"}},
{"type":"Feature","_id":"AZO","geometry": {"type":"Point", "coordinates":[-85.55206, 42.23488]},"properties":{"NAME":"Kalamazoo County", "STATE":"MI", "INBOUND":"4", "OUTBOUND":"6"}},
{"type":"Feature","_id":"MSO","geometry": {"type":"Point", "coordinates":[-114.09056, 46.91631]},"properties":{"NAME":"Missoula International", "STATE":"MT", "INBOUND":"5", "OUTBOUND":"6"}},
{"type":"Feature","_id":"ACV","geometry": {"type":"Point", "coordinates":[-124.10862, 40.97812]},"properties":{"NAME":"Arcata", "STATE":"CA", "INBOUND":"4", "OUTBOUND":"6"}},
{"type":"Feature","_id":"SHV","geometry": {"type":"Point", "coordinates":[-93.8256, 32.44663]},"properties":{"NAME":"Shreveport Regional", "STATE":"LA", "INBOUND":"6", "OUTBOUND":"6"}},
{"type":"Feature","_id":"FWA","geometry": {"type":"Point", "coordinates":[-85.19515, 40.97847]},"properties":{"NAME":"Fort Wayne International", "STATE":"IN", "INBOUND":"5", "OUTBOUND":"6"}},
{"type":"Feature","_id":"FAI","geometry": {"type":"Point", "coordinates":[-147.85967, 64.81368]},"properties":{"NAME":"Fairbanks International", "STATE":"AK", "INBOUND":"5", "OUTBOUND":"6"}},
{"type":"Feature","_id":"SGU","geometry": {"type":"Point", "coordinates":[-113.59306, 37.09058]},"properties":{"NAME":"St George Muni", "STATE":"UT", "INBOUND":"3", "OUTBOUND":"6"}},
{"type":"Feature","_id":"PHF","geometry": {"type":"Point", "coordinates":[-76.49299, 37.1319]},"properties":{"NAME":"Newport News\/Williamsburg International", "STATE":"VA", "INBOUND":"6", "OUTBOUND":"6"}},
{"type":"Feature","_id":"YUM","geometry": {"type":"Point", "coordinates":[-114.60597, 32.65658]},"properties":{"NAME":"Yuma MCAS-Yuma International", "STATE":"AZ", "INBOUND":"5", "OUTBOUND":"6"}},
{"type":"Feature","_id":"BIL","geometry": {"type":"Point", "coordinates":[-108.54286, 45.80766]},"properties":{"NAME":"Billings Logan Intl", "STATE":"MT", "INBOUND":"4", "OUTBOUND":"6"}},
{"type":"Feature","_id":"GUC","geometry": {"type":"Point", "coordinates":[-106.93318, 38.53396]},"properties":{"NAME":"Gunnison County", "STATE":"CO", "INBOUND":"5", "OUTBOUND":"5"}},
{"type":"Feature","_id":"GTF","geometry": {"type":"Point", "coordinates":[-111.37069, 47.482]},"properties":{"NAME":"Great Falls Intl", "STATE":"MT", "INBOUND":"6", "OUTBOUND":"5"}},
{"type":"Feature","_id":"STX","geometry": {"type":"Point", "coordinates":[-64.79856, 17.70189]},"properties":{"NAME":"Henry E. Rohlsen", "STATE":"VI", "INBOUND":"3", "OUTBOUND":"5"}},
{"type":"Feature","_id":"HRL","geometry": {"type":"Point", "coordinates":[-97.65439, 26.22851]},"properties":{"NAME":"Valley International", "STATE":"TX", "INBOUND":"5", "OUTBOUND":"5"}},
{"type":"Feature","_id":"MOD","geometry": {"type":"Point", "coordinates":[-120.95442, 37.62582]},"properties":{"NAME":"Modesto City-County-Harry Sham", "STATE":"CA", "INBOUND":"3", "OUTBOUND":"5"}},
{"type":"Feature","_id":"BMI","geometry": {"type":"Point", "coordinates":[-88.91595, 40.47799]},"properties":{"NAME":"Central Illinois Regional", "STATE":"IL", "INBOUND":"6", "OUTBOUND":"5"}},
{"type":"Feature","_id":"SBN","geometry": {"type":"Point", "coordinates":[-86.31847, 41.70895]},"properties":{"NAME":"South Bend Regional", "STATE":"IN", "INBOUND":"6", "OUTBOUND":"5"}},
{"type":"Feature","_id":"RDM","geometry": {"type":"Point", "coordinates":[-121.14996, 44.25407]},"properties":{"NAME":"Roberts", "STATE":"OR", "INBOUND":"7", "OUTBOUND":"5"}},
{"type":"Feature","_id":"RAP","geometry": {"type":"Point", "coordinates":[-103.05737, 44.04532]},"properties":{"NAME":"Rapid City Regional", "STATE":"SD", "INBOUND":"5", "OUTBOUND":"5"}},
{"type":"Feature","_id":"MOB","geometry": {"type":"Point", "coordinates":[-88.24283, 30.69142]},"properties":{"NAME":"Mobile Regional", "STATE":"AL", "INBOUND":"5", "OUTBOUND":"5"}},
{"type":"Feature","_id":"CWA","geometry": {"type":"Point", "coordinates":[-89.66678, 44.77762]},"properties":{"NAME":"Central Wisconsin", "STATE":"WI", "INBOUND":"5", "OUTBOUND":"5"}},
{"type":"Feature","_id":"CPR","geometry": {"type":"Point", "coordinates":[-106.46447, 42.90836]},"properties":{"NAME":"Natrona County Intl", "STATE":"WY", "INBOUND":"4", "OUTBOUND":"5"}},
{"type":"Feature","_id":"CRP","geometry": {"type":"Point", "coordinates":[-97.50122, 27.77036]},"properties":{"NAME":"Corpus Christi International", "STATE":"TX", "INBOUND":"4", "OUTBOUND":"4"}},
{"type":"Feature","_id":"KTN","geometry": {"type":"Point", "coordinates":[-131.71374, 55.35557]},"properties":{"NAME":"Ketchikan International", "STATE":"AK", "INBOUND":"4", "OUTBOUND":"4"}},
{"type":"Feature","_id":"DRO","geometry": {"type":"Point", "coordinates":[-107.75377, 37.15152]},"properties":{"NAME":"Durango-La Plata County", "STATE":"CO", "INBOUND":"3", "OUTBOUND":"4"}},
{"type":"Feature","_id":"CMI","geometry": {"type":"Point", "coordinates":[-88.27806, 40.03925]},"properties":{"NAME":"University of Illinois-Willard", "STATE":"IL", "INBOUND":"2", "OUTBOUND":"4"}},
{"type":"Feature","_id":"TRI","geometry": {"type":"Point", "coordinates":[-82.40742, 36.47521]},"properties":{"NAME":"Tri-Cities Regional", "STATE":"TN", "INBOUND":"4", "OUTBOUND":"4"}},
{"type":"Feature","_id":"PSE","geometry": {"type":"Point", "coordinates":[-66.56301, 18.0083]},"properties":{"NAME":"Mercedita", "STATE":"PR", "INBOUND":"4", "OUTBOUND":"4"}},
{"type":"Feature","_id":"PFN","geometry": {"type":"Point", "coordinates":[-85.68281, 30.21208]},"properties":{"NAME":"Panama City-Bay County International", "STATE":"FL", "INBOUND":"4", "OUTBOUND":"4"}},
{"type":"Feature","_id":"ILM","geometry": {"type":"Point", "coordinates":[-77.90256, 34.27061]},"properties":{"NAME":"Wilmington International", "STATE":"NC", "INBOUND":"4", "OUTBOUND":"4"}},
{"type":"Feature","_id":"LAN","geometry": {"type":"Point", "coordinates":[-84.58736, 42.7787]},"properties":{"NAME":"Capital City", "STATE":"MI", "INBOUND":"7", "OUTBOUND":"4"}},
{"type":"Feature","_id":"FSM","geometry": {"type":"Point", "coordinates":[-94.36744, 35.33659]},"properties":{"NAME":"Fort Smith Regional", "STATE":"AR", "INBOUND":"3", "OUTBOUND":"3"}},
{"type":"Feature","_id":"HLN","geometry": {"type":"Point", "coordinates":[-111.98275, 46.60682]},"properties":{"NAME":"Helena Regional", "STATE":"MT", "INBOUND":"3", "OUTBOUND":"3"}},
{"type":"Feature","_id":"SCE","geometry": {"type":"Point", "coordinates":[-77.8463, 40.85121]},"properties":{"NAME":"University Park", "STATE":"NA", "INBOUND":"3", "OUTBOUND":"3"}},
{"type":"Feature","_id":"RST","geometry": {"type":"Point", "coordinates":[-92.49799, 43.90883]},"properties":{"NAME":"Rochester International", "STATE":"MN", "INBOUND":"3", "OUTBOUND":"3"}},
{"type":"Feature","_id":"RKS","geometry": {"type":"Point", "coordinates":[-109.06519, 41.59422]},"properties":{"NAME":"Rock Springs-Sweetwater County", "STATE":"WY", "INBOUND":"3", "OUTBOUND":"3"}},
{"type":"Feature","_id":"PSC","geometry": {"type":"Point", "coordinates":[-119.11903, 46.26468]},"properties":{"NAME":"Tri-Cities", "STATE":"WA", "INBOUND":"2", "OUTBOUND":"3"}},
{"type":"Feature","_id":"ITO","geometry": {"type":"Point", "coordinates":[-155.04847, 19.72026]},"properties":{"NAME":"Hilo International", "STATE":"HI", "INBOUND":"2", "OUTBOUND":"3"}},
{"type":"Feature","_id":"AEX","geometry": {"type":"Point", "coordinates":[-92.54856, 31.32737]},"properties":{"NAME":"Alexandria International", "STATE":"LA", "INBOUND":"3", "OUTBOUND":"3"}},
{"type":"Feature","_id":"ACY","geometry": {"type":"Point", "coordinates":[-74.57717, 39.45758]},"properties":{"NAME":"Atlantic City International", "STATE":"NJ", "INBOUND":"1", "OUTBOUND":"3"}},
{"type":"Feature","_id":"GRK","geometry": {"type":"Point", "coordinates":[-97.8278, 31.0649]},"properties":{"NAME":"Robert Gray AAF", "STATE":"TX", "INBOUND":"3", "OUTBOUND":"3"}},
{"type":"Feature","_id":"MBS","geometry": {"type":"Point", "coordinates":[-84.07965, 43.53291]},"properties":{"NAME":"Mbs International", "STATE":"MI", "INBOUND":"4", "OUTBOUND":"3"}},
{"type":"Feature","_id":"MLU","geometry": {"type":"Point", "coordinates":[-92.03769, 32.51087]},"properties":{"NAME":"Monroe Regional", "STATE":"LA", "INBOUND":"3", "OUTBOUND":"3"}},
{"type":"Feature","_id":"MKG","geometry": {"type":"Point", "coordinates":[-86.23822, 43.16949]},"properties":{"NAME":"Muskegon County", "STATE":"MI", "INBOUND":"3", "OUTBOUND":"3"}},
{"type":"Feature","_id":"CHO","geometry": {"type":"Point", "coordinates":[-78.45286, 38.13864]},"properties":{"NAME":"Charlottesville-Albermarle", "STATE":"VA", "INBOUND":"2", "OUTBOUND":"3"}},
{"type":"Feature","_id":"BIS","geometry": {"type":"Point", "coordinates":[-100.74672, 46.77411]},"properties":{"NAME":"Bismarck Municipal", "STATE":"ND", "INBOUND":"2", "OUTBOUND":"3"}},
{"type":"Feature","_id":"TWF","geometry": {"type":"Point", "coordinates":[-114.48774, 42.4818]},"properties":{"NAME":"Joslin Field - Magic Valley", "STATE":"ID", "INBOUND":"13", "OUTBOUND":"3"}},
{"type":"Feature","_id":"TOL","geometry": {"type":"Point", "coordinates":[-83.80783, 41.58681]},"properties":{"NAME":"Toledo Express", "STATE":"OH", "INBOUND":"3", "OUTBOUND":"3"}},
{"type":"Feature","_id":"SIT","geometry": {"type":"Point", "coordinates":[-135.3616, 57.04714]},"properties":{"NAME":"Sitka", "STATE":"AK", "INBOUND":"3", "OUTBOUND":"3"}},
{"type":"Feature","_id":"RDD","geometry": {"type":"Point", "coordinates":[-122.2934, 40.50898]},"properties":{"NAME":"Redding Municipal", "STATE":"CA", "INBOUND":"3", "OUTBOUND":"3"}},
{"type":"Feature","_id":"IYK","geometry": {"type":"Point", "coordinates":[-117.82951, 35.65884]},"properties":{"NAME":"Inyokern", "STATE":"CA", "INBOUND":"1", "OUTBOUND":"3"}},
{"type":"Feature","_id":"IDA","geometry": {"type":"Point", "coordinates":[-112.07017, 43.51456]},"properties":{"NAME":"Idaho Falls Regional", "STATE":"ID", "INBOUND":"9", "OUTBOUND":"3"}},
{"type":"Feature","_id":"MQT","geometry": {"type":"Point", "coordinates":[-87.39536, 46.35364]},"properties":{"NAME":"Marquette County Airport", "STATE":"NA", "INBOUND":"3", "OUTBOUND":"3"}},
{"type":"Feature","_id":"MGM","geometry": {"type":"Point", "coordinates":[-86.39398, 32.30064]},"properties":{"NAME":"Montgomery Regional Apt", "STATE":"AL", "INBOUND":"6", "OUTBOUND":"3"}},
{"type":"Feature","_id":"MFE","geometry": {"type":"Point", "coordinates":[-98.23861, 26.17583]},"properties":{"NAME":"McAllen Miller International", "STATE":"TX", "INBOUND":"3", "OUTBOUND":"3"}},
{"type":"Feature","_id":"LWS","geometry": {"type":"Point", "coordinates":[-117.01539, 46.3745]},"properties":{"NAME":"Lewiston-Nez Perce County", "STATE":"ID", "INBOUND":"1", "OUTBOUND":"3"}},
{"type":"Feature","_id":"LMT","geometry": {"type":"Point", "coordinates":[-121.73321, 42.15614]},"properties":{"NAME":"Klamath Falls International", "STATE":"OR", "INBOUND":"2", "OUTBOUND":"3"}},
{"type":"Feature","_id":"LFT","geometry": {"type":"Point", "coordinates":[-91.98766, 30.20528]},"properties":{"NAME":"Lafayette Regional", "STATE":"LA", "INBOUND":"3", "OUTBOUND":"3"}},
{"type":"Feature","_id":"CIC","geometry": {"type":"Point", "coordinates":[-121.85842, 39.79538]},"properties":{"NAME":"Chico Municipal", "STATE":"CA", "INBOUND":"1", "OUTBOUND":"3"}},
{"type":"Feature","_id":"CDC","geometry": {"type":"Point", "coordinates":[-113.09858, 37.70097]},"properties":{"NAME":"Cedar City Muni", "STATE":"UT", "INBOUND":"2", "OUTBOUND":"3"}},
{"type":"Feature","_id":"BQN","geometry": {"type":"Point", "coordinates":[-67.12944, 18.49486]},"properties":{"NAME":"Rafael Hernandez", "STATE":"PR", "INBOUND":"3", "OUTBOUND":"3"}},
{"type":"Feature","_id":"AGS","geometry": {"type":"Point", "coordinates":[-81.9645, 33.36996]},"properties":{"NAME":"Bush", "STATE":"GA", "INBOUND":"4", "OUTBOUND":"3"}},
{"type":"Feature","_id":"GCC","geometry": {"type":"Point", "coordinates":[-105.53936, 44.3489]},"properties":{"NAME":"Gillette-Campbell County", "STATE":"WY", "INBOUND":"3", "OUTBOUND":"3"}},
{"type":"Feature","_id":"EKO","geometry": {"type":"Point", "coordinates":[-115.7917, 40.82493]},"properties":{"NAME":"Elko Regional", "STATE":"NV", "INBOUND":"1", "OUTBOUND":"2"}},
{"type":"Feature","_id":"FAY","geometry": {"type":"Point", "coordinates":[-78.88, 34.99147]},"properties":{"NAME":"Fayetteville Municipal", "STATE":"NC", "INBOUND":"2", "OUTBOUND":"2"}},
{"type":"Feature","_id":"OXR","geometry": {"type":"Point", "coordinates":[-119.20722, 34.2008]},"properties":{"NAME":"Oxnard", "STATE":"CA", "INBOUND":"1", "OUTBOUND":"2"}},
{"type":"Feature","_id":"LSE","geometry": {"type":"Point", "coordinates":[-91.25654, 43.87938]},"properties":{"NAME":"La Crosse Municipal", "STATE":"WI", "INBOUND":"2", "OUTBOUND":"2"}},
{"type":"Feature","_id":"ERI","geometry": {"type":"Point", "coordinates":[-80.17622, 42.08202]},"properties":{"NAME":"Erie Intl", "STATE":"PA", "INBOUND":"1", "OUTBOUND":"2"}},
{"type":"Feature","_id":"SUN","geometry": {"type":"Point", "coordinates":[-114.29659, 43.50484]},"properties":{"NAME":"Friedman Memorial", "STATE":"ID", "INBOUND":"2", "OUTBOUND":"2"}},
{"type":"Feature","_id":"PLN","geometry": {"type":"Point", "coordinates":[-84.79672, 45.57093]},"properties":{"NAME":"Pellston Regional  of Emmet County", "STATE":"MI", "INBOUND":"2", "OUTBOUND":"2"}},
{"type":"Feature","_id":"IPL","geometry": {"type":"Point", "coordinates":[-115.57875, 32.83422]},"properties":{"NAME":"Imperial County", "STATE":"CA", "INBOUND":"2", "OUTBOUND":"2"}},
{"type":"Feature","_id":"OAJ","geometry": {"type":"Point", "coordinates":[-77.61214, 34.82916]},"properties":{"NAME":"Albert J Ellis", "STATE":"NC", "INBOUND":"2", "OUTBOUND":"2"}},
{"type":"Feature","_id":"MLB","geometry": {"type":"Point", "coordinates":[-80.64581, 28.10275]},"properties":{"NAME":"Melbourne International", "STATE":"FL", "INBOUND":"2", "OUTBOUND":"2"}},
{"type":"Feature","_id":"OTH","geometry": {"type":"Point", "coordinates":[-124.24603, 43.41714]},"properties":{"NAME":"North Bend Muni", "STATE":"OR", "INBOUND":"3", "OUTBOUND":"2"}},
{"type":"Feature","_id":"COD","geometry": {"type":"Point", "coordinates":[-109.0238, 44.52019]},"properties":{"NAME":"Yellowstone Regional", "STATE":"WY", "INBOUND":"2", "OUTBOUND":"2"}},
{"type":"Feature","_id":"SPI","geometry": {"type":"Point", "coordinates":[-89.67762, 39.84395]},"properties":{"NAME":"Capital", "STATE":"IL", "INBOUND":"5", "OUTBOUND":"2"}},
{"type":"Feature","_id":"SLE","geometry": {"type":"Point", "coordinates":[-123.0025, 44.90953]},"properties":{"NAME":"McNary Fld", "STATE":"OR", "INBOUND":"1", "OUTBOUND":"2"}},
{"type":"Feature","_id":"SCC","geometry": {"type":"Point", "coordinates":[-148.46516, 70.19476]},"properties":{"NAME":"Deadhorse", "STATE":"AK", "INBOUND":"2", "OUTBOUND":"2"}},
{"type":"Feature","_id":"PSG","geometry": {"type":"Point", "coordinates":[-132.94528, 56.80165]},"properties":{"NAME":"James C. Johnson Petersburg", "STATE":"AK", "INBOUND":"2", "OUTBOUND":"2"}},
{"type":"Feature","_id":"PIR","geometry": {"type":"Point", "coordinates":[-100.28597, 44.38268]},"properties":{"NAME":"Pierre Regional", "STATE":"SD", "INBOUND":"2", "OUTBOUND":"2"}},
{"type":"Feature","_id":"YAK","geometry": {"type":"Point", "coordinates":[-139.66023, 59.50336]},"properties":{"NAME":"Yakutat", "STATE":"AK", "INBOUND":"2", "OUTBOUND":"2"}},
{"type":"Feature","_id":"WRG","geometry": {"type":"Point", "coordinates":[-132.36982, 56.48433]},"properties":{"NAME":"Wrangell", "STATE":"AK", "INBOUND":"2", "OUTBOUND":"2"}},
{"type":"Feature","_id":"OTZ","geometry": {"type":"Point", "coordinates":[-162.59855, 66.88468]},"properties":{"NAME":"Ralph Wien Memorial", "STATE":"AK", "INBOUND":"2", "OUTBOUND":"2"}},
{"type":"Feature","_id":"OME","geometry": {"type":"Point", "coordinates":[-165.44525, 64.5122]},"properties":{"NAME":"Nome", "STATE":"AK", "INBOUND":"2", "OUTBOUND":"2"}},
{"type":"Feature","_id":"LRD","geometry": {"type":"Point", "coordinates":[-99.46154, 27.54374]},"properties":{"NAME":"Laredo International", "STATE":"TX", "INBOUND":"2", "OUTBOUND":"2"}},
{"type":"Feature","_id":"LAW","geometry": {"type":"Point", "coordinates":[-98.41664, 34.56771]},"properties":{"NAME":"Lawton-Ft Sill Regional", "STATE":"OK", "INBOUND":"2", "OUTBOUND":"2"}},
{"type":"Feature","_id":"DLH","geometry": {"type":"Point", "coordinates":[-92.19365, 46.84209]},"properties":{"NAME":"Duluth International", "STATE":"MN", "INBOUND":"2", "OUTBOUND":"2"}},
{"type":"Feature","_id":"CLL","geometry": {"type":"Point", "coordinates":[-96.36382, 30.58859]},"properties":{"NAME":"Easterwood", "STATE":"TX", "INBOUND":"2", "OUTBOUND":"2"}},
{"type":"Feature","_id":"CLD","geometry": {"type":"Point", "coordinates":[-117.27873, 33.12723]},"properties":{"NAME":"MC Clellan-Palomar Airport", "STATE":"NA", "INBOUND":"2", "OUTBOUND":"2"}},
{"type":"Feature","_id":"CEC","geometry": {"type":"Point", "coordinates":[-124.23653, 41.78016]},"properties":{"NAME":"Jack McNamara", "STATE":"CA", "INBOUND":"2", "OUTBOUND":"2"}},
{"type":"Feature","_id":"CDV","geometry": {"type":"Point", "coordinates":[-145.47765, 60.49183]},"properties":{"NAME":"Merle K (Mudhole) Smith", "STATE":"AK", "INBOUND":"2", "OUTBOUND":"2"}},
{"type":"Feature","_id":"BRW","geometry": {"type":"Point", "coordinates":[-156.766, 71.28545]},"properties":{"NAME":"Wiley Post Will Rogers Memorial", "STATE":"AK", "INBOUND":"2", "OUTBOUND":"2"}},
{"type":"Feature","_id":"AKN","geometry": {"type":"Point", "coordinates":[-156.64922, 58.6768]},"properties":{"NAME":"King Salmon", "STATE":"AK", "INBOUND":"1", "OUTBOUND":"2"}},
{"type":"Feature","_id":"ACK","geometry": {"type":"Point", "coordinates":[-70.06018, 41.25305]},"properties":{"NAME":"Nantucket Memorial", "STATE":"MA", "INBOUND":"3", "OUTBOUND":"2"}},
{"type":"Feature","_id":"EYW","geometry": {"type":"Point", "coordinates":[-81.75956, 24.55611]},"properties":{"NAME":"Key West International", "STATE":"FL", "INBOUND":"2", "OUTBOUND":"2"}},
{"type":"Feature","_id":"ELM","geometry": {"type":"Point", "coordinates":[-76.89144, 42.15991]},"properties":{"NAME":"Elmira\/Corning Regional", "STATE":"NY", "INBOUND":"1", "OUTBOUND":"1"}},
{"type":"Feature","_id":"EWN","geometry": {"type":"Point", "coordinates":[-77.04294, 35.07297]},"properties":{"NAME":"Craven County Regional", "STATE":"NC", "INBOUND":"1", "OUTBOUND":"1"}},
{"type":"Feature","_id":"FLG","geometry": {"type":"Point", "coordinates":[-111.67122, 35.13845]},"properties":{"NAME":"Flagstaff Pulliam", "STATE":"AZ", "INBOUND":"1", "OUTBOUND":"1"}},
{"type":"Feature","_id":"FLO","geometry": {"type":"Point", "coordinates":[-79.72389, 34.18536]},"properties":{"NAME":"Florence Regional", "STATE":"SC", "INBOUND":"1", "OUTBOUND":"1"}},
{"type":"Feature","_id":"GFK","geometry": {"type":"Point", "coordinates":[-97.17611, 47.94926]},"properties":{"NAME":"Grand Forks International", "STATE":"ND", "INBOUND":"1", "OUTBOUND":"1"}},
{"type":"Feature","_id":"GST","geometry": {"type":"Point", "coordinates":[-135.70738, 58.42438]},"properties":{"NAME":"Gustavus", "STATE":"AK", "INBOUND":"1", "OUTBOUND":"1"}},
{"type":"Feature","_id":"ABY","geometry": {"type":"Point", "coordinates":[-84.19447, 31.53552]},"properties":{"NAME":"Southwest Georgia Regional", "STATE":"GA", "INBOUND":"1", "OUTBOUND":"1"}},
{"type":"Feature","_id":"ACT","geometry": {"type":"Point", "coordinates":[-97.23052, 31.61129]},"properties":{"NAME":"Waco Regional", "STATE":"TX", "INBOUND":"1", "OUTBOUND":"1"}},
{"type":"Feature","_id":"ADK","geometry": {"type":"Point", "coordinates":[-176.64603, 51.87796]},"properties":{"NAME":"Adak", "STATE":"AK", "INBOUND":"1", "OUTBOUND":"1"}},
{"type":"Feature","_id":"ADQ","geometry": {"type":"Point", "coordinates":[-152.49386, 57.74997]},"properties":{"NAME":"Kodiak", "STATE":"AK", "INBOUND":"1", "OUTBOUND":"1"}},
{"type":"Feature","_id":"ALO","geometry": {"type":"Point", "coordinates":[-92.40034, 42.55708]},"properties":{"NAME":"Waterloo Municipal", "STATE":"IA", "INBOUND":"1", "OUTBOUND":"1"}},
{"type":"Feature","_id":"BGM","geometry": {"type":"Point", "coordinates":[-75.97961, 42.20848]},"properties":{"NAME":"Binghamton Regional", "STATE":"NY", "INBOUND":"1", "OUTBOUND":"1"}},
{"type":"Feature","_id":"BQK","geometry": {"type":"Point", "coordinates":[-81.46631, 31.25903]},"properties":{"NAME":"Glynco Jetport", "STATE":"GA", "INBOUND":"1", "OUTBOUND":"1"}},
{"type":"Feature","_id":"BRO","geometry": {"type":"Point", "coordinates":[-97.42586, 25.90683]},"properties":{"NAME":"Brownsville\/S.Padre Island International", "STATE":"TX", "INBOUND":"1", "OUTBOUND":"1"}},
{"type":"Feature","_id":"BTM","geometry": {"type":"Point", "coordinates":[-112.49746, 45.9548]},"properties":{"NAME":"Bert Mooney", "STATE":"MT", "INBOUND":"2", "OUTBOUND":"1"}},
{"type":"Feature","_id":"CMX","geometry": {"type":"Point", "coordinates":[-88.48906, 47.16842]},"properties":{"NAME":"Houghton County Memorial", "STATE":"MI", "INBOUND":"1", "OUTBOUND":"1"}},
{"type":"Feature","_id":"CSG","geometry": {"type":"Point", "coordinates":[-84.93886, 32.51633]},"properties":{"NAME":"Columbus Metropolitan", "STATE":"GA", "INBOUND":"1", "OUTBOUND":"1"}},
{"type":"Feature","_id":"DBQ","geometry": {"type":"Point", "coordinates":[-90.70917, 42.40296]},"properties":{"NAME":"Dubuque Municipal", "STATE":"IA", "INBOUND":"1", "OUTBOUND":"1"}},
{"type":"Feature","_id":"DHN","geometry": {"type":"Point", "coordinates":[-85.44963, 31.32134]},"properties":{"NAME":"Dothan", "STATE":"AL", "INBOUND":"1", "OUTBOUND":"1"}},
{"type":"Feature","_id":"DLG","geometry": {"type":"Point", "coordinates":[-158.50334, 59.04541]},"properties":{"NAME":"Dillingham", "STATE":"AK", "INBOUND":"2", "OUTBOUND":"1"}},
{"type":"Feature","_id":"LCH","geometry": {"type":"Point", "coordinates":[-93.2234, 30.1261]},"properties":{"NAME":"Lake Charles Regional", "STATE":"LA", "INBOUND":"1", "OUTBOUND":"1"}},
{"type":"Feature","_id":"LYH","geometry": {"type":"Point", "coordinates":[-79.20043, 37.32669]},"properties":{"NAME":"Lynchburg Municipal-Preston Glenn", "STATE":"VA", "INBOUND":"1", "OUTBOUND":"1"}},
{"type":"Feature","_id":"MCN","geometry": {"type":"Point", "coordinates":[-83.64921, 32.69285]},"properties":{"NAME":"Middle Georgia Regional", "STATE":"GA", "INBOUND":"1", "OUTBOUND":"1"}},
{"type":"Feature","_id":"MEI","geometry": {"type":"Point", "coordinates":[-88.75121, 32.33313]},"properties":{"NAME":"Key", "STATE":"MS", "INBOUND":"1", "OUTBOUND":"1"}},
{"type":"Feature","_id":"HHH","geometry": {"type":"Point", "coordinates":[-80.69763, 32.22438]},"properties":{"NAME":"Hilton Head", "STATE":"NA", "INBOUND":"1", "OUTBOUND":"1"}},
{"type":"Feature","_id":"HTS","geometry": {"type":"Point", "coordinates":[-82.55803, 38.36667]},"properties":{"NAME":"Tri-State\/Walker-Long", "STATE":"WV", "INBOUND":"1", "OUTBOUND":"1"}},
{"type":"Feature","_id":"INL","geometry": {"type":"Point", "coordinates":[-93.40307, 48.56619]},"properties":{"NAME":"Falls International", "STATE":"MN", "INBOUND":"1", "OUTBOUND":"1"}},
{"type":"Feature","_id":"ITH","geometry": {"type":"Point", "coordinates":[-76.45844, 42.49103]},"properties":{"NAME":"Tompkins Cty", "STATE":"NY", "INBOUND":"1", "OUTBOUND":"1"}},
{"type":"Feature","_id":"VLD","geometry": {"type":"Point", "coordinates":[-83.27672, 30.7825]},"properties":{"NAME":"Valdosta Regional", "STATE":"GA", "INBOUND":"1", "OUTBOUND":"1"}},
{"type":"Feature","_id":"YKM","geometry": {"type":"Point", "coordinates":[-120.54406, 46.56817]},"properties":{"NAME":"Yakima Air Terminal", "STATE":"WA", "INBOUND":"1", "OUTBOUND":"1"}},
{"type":"Feature","_id":"PIH","geometry": {"type":"Point", "coordinates":[-112.59586, 42.91131]},"properties":{"NAME":"Pocatello Regional", "STATE":"ID", "INBOUND":"7", "OUTBOUND":"1"}},
{"type":"Feature","_id":"PUB","geometry": {"type":"Point", "coordinates":[-104.49657, 38.28909]},"properties":{"NAME":"Pueblo Memorial", "STATE":"CO", "INBOUND":"", "OUTBOUND":"1"}},
{"type":"Feature","_id":"SJT","geometry": {"type":"Point", "coordinates":[-100.49631, 31.35775]},"properties":{"NAME":"San Angelo Regional \/Mathis", "STATE":"TX", "INBOUND":"1", "OUTBOUND":"1"}},
{"type":"Feature","_id":"SMX","geometry": {"type":"Point", "coordinates":[-120.45758, 34.89925]},"properties":{"NAME":"Santa Maria Pub\/Capt G Allan Hancock", "STATE":"CA", "INBOUND":"3", "OUTBOUND":"1"}},
{"type":"Feature","_id":"SPS","geometry": {"type":"Point", "coordinates":[-98.49189, 33.9888]},"properties":{"NAME":"Sheppard AFB\/Wichita Falls Municipal", "STATE":"TX", "INBOUND":"1", "OUTBOUND":"1"}},
{"type":"Feature","_id":"SUX","geometry": {"type":"Point", "coordinates":[-96.38437, 42.4026]},"properties":{"NAME":"Sioux Gateway", "STATE":"IA", "INBOUND":"1", "OUTBOUND":"1"}},
{"type":"Feature","_id":"TEX","geometry": {"type":"Point", "coordinates":[-107.90848, 37.95376]},"properties":{"NAME":"Telluride Regional", "STATE":"CO", "INBOUND":"1", "OUTBOUND":"1"}},
{"type":"Feature","_id":"BJI","geometry": {"type":"Point", "coordinates":[-94.93372, 47.50942]},"properties":{"NAME":"Bemidji-Beltrami County", "STATE":"MN", "INBOUND":"1", "OUTBOUND":"1"}},
{"type":"Feature","_id":"BPT","geometry": {"type":"Point", "coordinates":[-94.02069, 29.95083]},"properties":{"NAME":"Southeast Texas Regional", "STATE":"TX", "INBOUND":"1", "OUTBOUND":"1"}},
{"type":"Feature","_id":"LWB","geometry": {"type":"Point", "coordinates":[-80.39947, 37.85831]},"properties":{"NAME":"Greenbrier Valley", "STATE":"WV", "INBOUND":"1", "OUTBOUND":"1"}},
{"type":"Feature","_id":"GNV","geometry": {"type":"Point", "coordinates":[-82.27178, 29.69006]},"properties":{"NAME":"Gainesville Regional", "STATE":"FL", "INBOUND":"1", "OUTBOUND":"1"}},
{"type":"Feature","_id":"GTR","geometry": {"type":"Point", "coordinates":[-88.59137, 33.45033]},"properties":{"NAME":"Golden Triangle Regional", "STATE":"MS", "INBOUND":"1", "OUTBOUND":"1"}},
{"type":"Feature","_id":"ABI","geometry": {"type":"Point", "coordinates":[-99.6819, 32.41132]},"properties":{"NAME":"Abilene Regional", "STATE":"TX", "INBOUND":"2", "OUTBOUND":"1"}},
{"type":"Feature","_id":"WYS","geometry": {"type":"Point", "coordinates":[-111.11764, 44.6884]},"properties":{"NAME":"Yellowstone", "STATE":"MT", "INBOUND":"1", "OUTBOUND":"1"}},
{"type":"Feature","_id":"RFD","geometry": {"type":"Point", "coordinates":[-89.09721, 42.19536]},"properties":{"NAME":"Greater Rockford", "STATE":"IL", "INBOUND":"5", "OUTBOUND":"1"}},
{"type":"Feature","_id":"RHI","geometry": {"type":"Point", "coordinates":[-89.46745, 45.63119]},"properties":{"NAME":"Rhinelander-Oneida County", "STATE":"WI", "INBOUND":"1", "OUTBOUND":"1"}},
{"type":"Feature","_id":"ROW","geometry": {"type":"Point", "coordinates":[-104.53056, 33.30156]},"properties":{"NAME":"Roswell Industrial Air Center", "STATE":"NM", "INBOUND":"1", "OUTBOUND":"1"}},
{"type":"Feature","_id":"TUP","geometry": {"type":"Point", "coordinates":[-88.7699, 34.26811]},"properties":{"NAME":"Tupelo Municipal", "STATE":"MS", "INBOUND":"1", "OUTBOUND":"1"}},
{"type":"Feature","_id":"TXK","geometry": {"type":"Point", "coordinates":[-93.99102, 33.45371]},"properties":{"NAME":"Texarkana Regional-Webb", "STATE":"AR", "INBOUND":"1", "OUTBOUND":"1"}},
{"type":"Feature","_id":"TYR","geometry": {"type":"Point", "coordinates":[-95.40239, 32.35414]},"properties":{"NAME":"Tyler Pounds", "STATE":"TX", "INBOUND":"1", "OUTBOUND":"1"}},
{"type":"Feature","_id":"GGG","geometry": {"type":"Point", "coordinates":[-94.71171, 32.38486]},"properties":{"NAME":"Gregg County", "STATE":"TX", "INBOUND":"2", "OUTBOUND":"1"}},
{"type":"Feature","_id":"BLI","geometry": {"type":"Point", "coordinates":[-122.53753, 48.79275]},"properties":{"NAME":"Bellingham Intl", "STATE":"WA", "INBOUND":"2", "OUTBOUND":"1"}},
{"type":"Feature","_id":"MOT","geometry": {"type":"Point", "coordinates":[-101.28033, 48.25938]},"properties":{"NAME":"Minot International", "STATE":"ND", "INBOUND":"1", "OUTBOUND":"1"}},
{"type":"Feature","_id":"PMD","geometry": {"type":"Point", "coordinates":[-118.08455, 34.62939]},"properties":{"NAME":"Palmdale Production Flight", "STATE":"CA", "INBOUND":"2", "OUTBOUND":"1"}},
{"type":"Feature","_id":"BET","geometry": {"type":"Point", "coordinates":[-161.838, 60.77978]},"properties":{"NAME":"Bethel", "STATE":"AK", "INBOUND":"1", "OUTBOUND":"1"}}]}